[{"bounds": {"northeast": {"lat": 53.160502, "lng": 8.7124936}, "southwest": {"lat": 53.155015, "lng": 8.704362}}, "copyrights": "Map data \u00a92020 GeoBasis-DE/BKG (\u00a92009)", "legs": [{"arrival_time": {"text": "6:23pm", "time_zone": "Europe/Berlin", "value": 1593274980}, "departure_time": {"text": "6:12pm", "time_zone": "Europe/Berlin", "value": 1593274333}, "distance": {"text": "1.3 km", "value": 1327}, "duration": {"text": "11 mins", "value": 647}, "end_address": "Bremen-Burg, 28719 Burg (Spreewald), Germany", "end_location": {"lat": 53.160502, "lng": 8.704362}, "start_address": "Am Postmoor 1, 28719 Bremen, Germany", "start_location": {"lat": 53.1564852, "lng": 8.7124936}, "steps": [{"distance": {"text": "0.7 km", "value": 711}, "duration": {"text": "9 mins", "value": 527}, "end_location": {"lat": 53.1550168, "lng": 8.7046117}, "html_instructions": "Walk to Bremen Burger Dorfstra\u00dfe", "polyline": {"points": "acmcIatdt@aBp@Bd@?\\?V?ZAP?J@J?FBVBp@LhANrATpBh@`GFl@Fn@HxAFjAB`@H`AJnBD`ADhCDvBXEv@GbAOPEf@G"}, "start_location": {"lat": 53.1564852, "lng": 8.7124936}, "steps": [{"distance": {"text": "58 m", "value": 58}, "duration": {"text": "1 min", "value": 41}, "end_location": {"lat": 53.1569847, "lng": 8.712241299999999}, "html_instructions": "Head <b>north</b> on <b>Am Postmoor</b> toward <b>Grambkermoorer Landstra\u00dfe</b>", "polyline": {"points": "acmcIatdt@aBp@"}, "start_location": {"lat": 53.1564852, "lng": 8.7124936}, "travel_mode": "WALKING"}, {"distance": {"text": "0.5 km", "value": 536}, "duration": {"text": "7 mins", "value": 400}, "end_location": {"lat": 53.1560595, "lng": 8.704393699999999}, "html_instructions": "Turn <b>left</b> onto <b>Grambkermoorer Landstra\u00dfe</b>", "maneuver": "turn-left", "polyline": {"points": "cfmcIordt@Bd@?\\?V?ZAP?J@J?FBVBp@LhANrATpBh@`GFl@Fn@HxAFjAB`@H`AJnBD`ADhCDvB"}, "start_location": {"lat": 53.1569847, "lng": 8.712241299999999}, "travel_mode": "WALKING"}, {"distance": {"text": "0.1 km", "value": 117}, "duration": {"text": "1 min", "value": 86}, "end_location": {"lat": 53.1550168, "lng": 8.7046117}, "html_instructions": "Turn <b>left</b> onto <b>Burger Heerstra\u00dfe</b>", "maneuver": "turn-left", "polyline": {"points": "k`mcImact@XEv@GbAOPEf@G"}, "start_location": {"lat": 53.1560595, "lng": 8.704393699999999}, "travel_mode": "WALKING"}], "travel_mode": "WALKING"}, {"distance": {"text": "0.6 km", "value": 616}, "duration": {"text": "2 mins", "value": 120}, "end_location": {"lat": 53.160502, "lng": 8.704362}, "html_instructions": "Bus towards Farge S\u00fcd / Wasserweg", "polyline": {"points": "{ylcIubct@?Qga@~@"}, "start_location": {"lat": 53.155015, "lng": 8.704589}, "transit_details": {"arrival_stop": {"location": {"lat": 53.160502, "lng": 8.704362}, "name": "Bremen Bahnhof Burg"}, "arrival_time": {"text": "6:23pm", "time_zone": "Europe/Berlin", "value": 1593274980}, "departure_stop": {"location": {"lat": 53.155015, "lng": 8.704589}, "name": "Bremen Burger Dorfstra\u00dfe"}, "departure_time": {"text": "6:21pm", "time_zone": "Europe/Berlin", "value": 1593274860}, "headsign": "Farge S\u00fcd / Wasserweg", "line": {"agencies": [{"name": "Bremer Stra\u00dfenbahn AG", "url": "http://www.bsag.de/"}], "color": "#312783", "short_name": "90", "text_color": "#ffffff", "vehicle": {"icon": "//maps.gstatic.com/mapfiles/transit/iw2/6/bus2.png", "name": "Bus", "type": "BUS"}}, "num_stops": 1}, "travel_mode": "TRANSIT"}], "traffic_speed_entry": [], "via_waypoint": []}], "overview_polyline": {"points": "acmcIatdt@aBp@Bd@?t@Al@@VTzCvAtN\\vFTpDJjEDvBXEzBWx@M?B?Qga@~@"}, "summary": "", "warnings": ["Walking directions are in beta. Use caution \u2013 This route may be missing sidewalks or pedestrian paths."], "waypoint_order": []}]