[{"bounds": {"northeast": {"lat": 53.160702, "lng": 8.8136309}, "southwest": {"lat": 53.0828923, "lng": 8.703623300000002}}, "copyrights": "Map data \u00a92020 GeoBasis-DE/BKG (\u00a92009)", "legs": [{"arrival_time": {"text": "7:58pm", "time_zone": "Europe/Berlin", "value": 1590861537}, "departure_time": {"text": "7:34pm", "time_zone": "Europe/Berlin", "value": 1590860040}, "distance": {"text": "12.9 km", "value": 12874}, "duration": {"text": "25 mins", "value": 1497}, "end_address": "Wummestra\u00dfe 5, 28719 Bremen, Germany", "end_location": {"lat": 53.1579996, "lng": 8.7115107}, "start_address": "Bremen Central Station, Bahnhofspl. 15, 28195 Bremen, Germany", "start_location": {"lat": 53.0828923, "lng": 8.812354299999999}, "steps": [{"distance": {"text": "1 m", "value": 0}, "duration": {"text": "1 min", "value": 0}, "end_location": {"lat": 53.0828923, "lng": 8.812354299999999}, "html_instructions": "Walk to Bremen Central Station", "polyline": {"points": "aw~bIedxt@"}, "start_location": {"lat": 53.0828923, "lng": 8.812354299999999}, "steps": [{"distance": {"text": "1 m", "value": 0}, "duration": {"text": "1 min", "value": 0}, "end_location": {"lat": 53.0828923, "lng": 8.812354299999999}, "polyline": {"points": "aw~bIedxt@"}, "start_location": {"lat": 53.0828923, "lng": 8.812354299999999}, "travel_mode": "WALKING"}], "travel_mode": "WALKING"}, {"distance": {"text": "11.7 km", "value": 11718}, "duration": {"text": "11 mins", "value": 660}, "end_location": {"lat": 53.160702, "lng": 8.704725}, "html_instructions": "Train towards Bremen-Vegesack", "polyline": {"points": "ay~bIakxt@[c@GNABUn@w@zBq@tBK`@]~@Ur@i@xAABaAjCi@tAi@vAy@zBq@hB]~@KXg@nAKZCDUl@w@pBEFYh@EH]r@CFaAlBIL}@~AGLs@tAcAfB_AvAcBvBo@|@y@bAcBxBk@t@a@f@oA|Aa@d@QTQTW\\kB`C[\\uBnCED_BpBgAzAQRiBdCSXSZUZk@z@]b@_ApAUZU^W\\{@pAqAdBQVaCjDmB`C?@oA~Ac@h@kB`CWXUXwBxBu@r@y@t@o@f@s@l@y@r@wBhB_@ZiC`CQN_Ax@_Av@URURcA|@OLOL]Z_@\\_Ax@KHQN{@p@u@l@w@l@kBpAaAp@eAl@a@V_Aj@_@PgAj@i@R]Pe@LQHWHUHE@u@TA@{@Rq@P]Ha@Jg@HSFKBeAT[Hi@LIBcATy@PE@w@To@Tm@RWJy@ZIDYLYLA@y@`@GBm@^SLi@ZcAp@eAj@eAr@OH}@j@qAz@eAr@y@f@o@`@qErCyChBwBtAeC|AUNe@\\q@`@{@l@oAbAOLaAt@uArAq@v@QRg@p@g@n@}@jAm@`AyBzDu@|A]p@_AbCk@tAeArCaAlCWp@uChIyAxDm@|Ac@jAGPMXKXaAnC_AnCWr@iElLQd@k@|AcAxCKTIVSj@y@vBq@hBOb@kBfFiBtFA@oAdEs@rCm@hCgAzE{AvGiAbFq@hCc@vBcApGc@bE}@dJCZu@lIg@vFGt@AFQjBIx@Ix@CRCR?LQ`BEZq@`EWzAe@vBo@`Cq@zBcAvCcAjC_ApB{@~Ae@x@uBvDm@fAsBtDiAtBwA|B_AdBaDpFwCnFKPmAxBGLgAnBWf@GHEJU^yAhC_@t@eAnBaBvC]n@iAtBYh@g@`ACDe@x@iApBMTOXKNaBtCU`@sBpDcBtCGLcB|C]j@A@e@x@_BtC_BrCyBxD_C`E}B~DOXWh@s@rASZOX]n@y@rAc@t@Q\\o@`AOTKLq@x@g@p@[Xo@n@w@h@c@^g@Zi@XWLIFc@Ra@Pe@PC@[HaAXIBu@Vo@RSDyA`@w@j@WPC@YLiAh@kAb@aBj@YJMBkDlAGq@"}, "start_location": {"lat": 53.0832132, "lng": 8.813454499999999}, "transit_details": {"arrival_stop": {"location": {"lat": 53.160702, "lng": 8.704725}, "name": "Bremen-Burg"}, "arrival_time": {"text": "7:45pm", "time_zone": "Europe/Berlin", "value": 1590860700}, "departure_stop": {"location": {"lat": 53.0832132, "lng": 8.813454499999999}, "name": "Bremen Central Station"}, "departure_time": {"text": "7:34pm", "time_zone": "Europe/Berlin", "value": 1590860040}, "headsign": "Bremen-Vegesack", "line": {"agencies": [{"name": "NordWestBahn", "url": "http://www.nordwestbahn.de/"}], "short_name": "RS1", "vehicle": {"icon": "//maps.gstatic.com/mapfiles/transit/iw2/6/rail2.png", "name": "Train", "type": "HEAVY_RAIL"}}, "num_stops": 3}, "travel_mode": "TRANSIT"}, {"distance": {"text": "1.2 km", "value": 1156}, "duration": {"text": "14 mins", "value": 837}, "end_location": {"lat": 53.1579996, "lng": 8.7115107}, "html_instructions": "Walk to Wummestra\u00dfe 5, 28719 Bremen, Germany", "polyline": {"points": "_}mcI}`ct@jBi@H?D?F@HBHFRTDn@J~AtB[`Eo@~Da@NAv@Kv@IB?xASEwBEiCEaAKoBIaACa@GkAIyAGo@Gm@i@aGUqBOsAMiACq@CW?GAKIAYAUAeA@K?K@]AW?"}, "start_location": {"lat": 53.1606411, "lng": 8.704306899999999}, "steps": [{"distance": {"text": "0.1 km", "value": 149}, "duration": {"text": "2 mins", "value": 109}, "end_location": {"lat": 53.159688, "lng": 8.703623300000002}, "html_instructions": "Head <b>south</b> on <b>Am Burger Bahnhof</b> toward <b>Bremer Heerstra\u00dfe</b>", "polyline": {"points": "_}mcI}`ct@jBi@H?D?F@HBHFRTDn@J~A"}, "start_location": {"lat": 53.1606411, "lng": 8.704306899999999}, "travel_mode": "WALKING"}, {"distance": {"text": "0.4 km", "value": 356}, "duration": {"text": "4 mins", "value": 261}, "end_location": {"lat": 53.1565123, "lng": 8.704294599999999}, "html_instructions": "Turn <b>left</b> onto <b>Bremer Heerstra\u00dfe</b>", "maneuver": "turn-left", "polyline": {"points": "awmcIs|bt@tB[`Eo@~Da@NAv@Kv@IB?"}, "start_location": {"lat": 53.159688, "lng": 8.703623300000002}, "travel_mode": "WALKING"}, {"distance": {"text": "51 m", "value": 51}, "duration": {"text": "1 min", "value": 34}, "end_location": {"lat": 53.1560595, "lng": 8.704393699999999}, "html_instructions": "Continue onto <b>Burger Heerstra\u00dfe</b>", "polyline": {"points": "ecmcIy`ct@xAS"}, "start_location": {"lat": 53.1565123, "lng": 8.704294599999999}, "travel_mode": "WALKING"}, {"distance": {"text": "0.5 km", "value": 485}, "duration": {"text": "6 mins", "value": 349}, "end_location": {"lat": 53.15696819999999, "lng": 8.711487100000001}, "html_instructions": "Turn <b>left</b> onto <b>Grambkermoorer Landstra\u00dfe</b>", "maneuver": "turn-left", "polyline": {"points": "k`mcImact@EwBEiCEaAKoBIaACa@GkAIyAGo@Gm@i@aGUqBOsAMiACq@CW?GAK"}, "start_location": {"lat": 53.1560595, "lng": 8.704393699999999}, "travel_mode": "WALKING"}, {"distance": {"text": "0.1 km", "value": 115}, "duration": {"text": "1 min", "value": 84}, "end_location": {"lat": 53.1579996, "lng": 8.7115107}, "html_instructions": "Turn <b>left</b> onto <b>Wummestra\u00dfe</b><div style=\"font-size:0.9em\">Restricted usage road</div><div style=\"font-size:0.9em\">Destination will be on the right</div>", "maneuver": "turn-left", "polyline": {"points": "afmcIymdt@IAYAUAeA@K?K@]AW?"}, "start_location": {"lat": 53.15696819999999, "lng": 8.711487100000001}, "travel_mode": "WALKING"}], "travel_mode": "WALKING"}], "traffic_speed_entry": [], "via_waypoint": []}], "overview_polyline": {"points": "aw~bIedxt@_A{E[c@IRkCbI_BpEoEtLcCrG}A`EcAnBmCbF{@bBcC~DmExFaGtH}AnBcGtHgDlE{BxCiBlCiCpDwDlFaCjDmB`CoA`B}D~EmDlDiB|AeGfF{GbGmGtFoCxBcD~BgC~AaBbAgB|@gAd@w@ViBj@mCp@_GrA{D~@oDpA_Ab@cCrAmBlAkC~AeFdDuMfIyH`FmBnA_BpAwChCcAjAoA`BkBlCyBzDu@|A}AtDkEhLuChIyAxDqAhDcBtEsHvSuGvQkBfFiBtFqAfEeGpW{BlJc@vBcApGaBhPy@hJcA`L[zCQnBw@|E}@rEaB|FcAvCcAjC_ApB{@~A{CpFaD|FiAtBwA|BaFvIyFhK}FlK{JxQcMpTkNvVeHdMuBxD_DhFuBnCkAhA{AhAsBjAeAd@i@R}C~@cAXyA`@w@j@[RcBv@mDnAg@NkDlAGq@JpAjBi@N?PD\\\\PnCvHkAnEc@lEi@KaGQqD_@iGoAqM]}CGiAASc@CsB@u@A"}, "summary": "", "warnings": ["Walking directions are in beta. Use caution \u2013 This route may be missing sidewalks or pedestrian paths."], "waypoint_order": []}]